{"type":"FeatureCollection","features":[{"type":"Feature","id":7,"properties":{"NAME":"Cosmic Caverns","URL":"http://cosmiccavern.com/","DESCRIPTION":"1 hour & 15 minute walking tour, the warmest cave in the Ozark's at 64 degrees year round"},"geometry":{"type":"Point","coordinates":[-93.4973,36.4358]}},{"type":"Feature","id":225,"properties":{"NAME":"Onyx Cave","URL":"http://onyxcaveeurekasprings.com/","DESCRIPTION":"Located six miles east of Eureka Springs, radio headphones guide you on a non-strenuous path through the cave as you pass amazing formations."},"geometry":{"type":"Point","coordinates":[-93.6773,36.4375]}},{"type":"Feature","id":226,"properties":{"NAME":"Mystic Caverns","URL":"http://www.mysticcaverns.com/","DESCRIPTION":"Located 8 miles south of Harrison in Marble Falls, offers guided tours of beautiful caverns, Mystic and Crystal Dome."},"geometry":{"type":"Point","coordinates":[-93.12666,36.11961]}},{"type":"Feature","id":227,"properties":{"NAME":"Old Spanish Treasure Cave","URL":"http://www.spanish-treasure-cave.com/","DESCRIPTION":"Located near Sulphur Springs, offers a guided tour that includes fossils, and provides an Adventure Tour for beginning cavers."},"geometry":{"type":"Point","coordinates":[-94.46027,36.48222]}},{"type":"Feature","id":228,"properties":{"NAME":"War Eagle Cavern","URL":"http://wareaglecavern.com/","DESCRIPTION":"Offers 40-minute tour, and gemstone panning this site is highly protected and every effort has been made to leave the caverns and ground in their natural state."},"geometry":{"type":"Point","coordinates":[-93.90447,36.29525]}},{"type":"Feature","id":229,"properties":{"NAME":"Blanchard Springs Caverns","URL":"https://www.fs.usda.gov/detail/osfnf/specialplaces/?cid=stelprdb5351305","DESCRIPTION":"Located in Mountain View, and operated by the U.S. Forest Service, they offer 2 guided tours that trail through massive ever-changing formations."},"geometry":{"type":"Point","coordinates":[-92.17932,35.96368]}},{"type":"Feature","id":230,"properties":{"NAME":"Bull Shoals Caverns","URL":"http://www.bullshoalscaverns.com/","DESCRIPTION":"Located in Bull Shoals, offers 45-50 minute tours through amazing caverns that formed 350 million years ago."},"geometry":{"type":"Point","coordinates":[-92.58401,36.37958]}},{"type":"Feature","id":231,"properties":{"NAME":"Hurricane River Cave","URL":"http://www.hurricanerivercaverns.com/","DESCRIPTION":"Located near Harrison they offer both regular and wild cave tours through huge formations and down an ancient underground riverbed."},"geometry":{"type":"Point","coordinates":[-92.9342,36.0545]}}]}